[
[{"place_id":116575539,"licence":"Data © OpenStreetMap contributors, ODbL 1.0. https://osm.org/copyright","osm_type":"way","osm_id":41087654,"boundingbox":["40.9700607","40.9706492","-5.6634802","-5.6621182"],"lat":"40.9703113","lon":"-5.6627842","display_name":"Calle Bernardo Martín Pérez, Labradores, Salamanca, Castilla y León, 37005, España","class":"highway","type":"residential","importance":0.5}],
[{"place_id":117838912,"licence":"Data © OpenStreetMap contributors, ODbL 1.0. https://osm.org/copyright","osm_type":"way","osm_id":46951235,"boundingbox":["40.9701562","40.9706344","-5.6566142","-5.6561847"],"lat":"40.9702","lon":"-5.6562277","display_name":"Calle Don Bosco, Labradores, Salamanca, Castilla y León, 37005, España","class":"highway","type":"residential","importance":0.6},{"place_id":142094375,"licence":"Data © OpenStreetMap contributors, ODbL 1.0. https://osm.org/copyright","osm_type":"way","osm_id":157075071,"boundingbox":["40.9706098","40.9706566","-5.6566614","-5.6565714"],"lat":"40.9706344","lon":"-5.6566142","display_name":"Calle Don Bosco, Labradores, Salamanca, Castilla y León, 37005, España","class":"highway","type":"footway","importance":0.575},{"place_id":177628334,"licence":"Data © OpenStreetMap contributors, ODbL 1.0. https://osm.org/copyright","osm_type":"way","osm_id":299662276,"boundingbox":["40.9707059","40.9707254","-5.6567699","-5.6567501"],"lat":"40.9707254","lon":"-5.6567699","display_name":"Calle Don Bosco, Labradores, Salamanca, Castilla y León, 37005, España","class":"highway","type":"steps","importance":0.575}],
[{"place_id":116302523,"licence":"Data © OpenStreetMap contributors, ODbL 1.0. https://osm.org/copyright","osm_type":"way","osm_id":41087753,"boundingbox":["40.9706776","40.9708116","-5.6604238","-5.6599045"],"lat":"40.9707674","lon":"-5.6600373","display_name":"Calle de Don José Artero, Labradores, Salamanca, Castilla y León, 37005, España","class":"highway","type":"residential","importance":0.6}],
[{"place_id":118257893,"licence":"Data © OpenStreetMap contributors, ODbL 1.0. https://osm.org/copyright","osm_type":"way","osm_id":46951238,"boundingbox":["40.9700177","40.9704608","-5.6571462","-5.6566485"],"lat":"40.9704239","lon":"-5.6570971","display_name":"Calle Juan del Encina, Labradores, Salamanca, Castilla y León, 37005, España","class":"highway","type":"residential","importance":0.7000000000000001}],
[{"place_id":130971210,"licence":"Data © OpenStreetMap contributors, ODbL 1.0. https://osm.org/copyright","osm_type":"way","osm_id":111994648,"boundingbox":["40.7271696","40.7282473","-5.491842","-5.4910963"],"lat":"40.7275337","lon":"-5.4913212","display_name":"Calle las Eras, Anaya de Alba, Salamanca, Castilla y León, España","class":"highway","type":"residential","importance":0.6},{"place_id":130847284,"licence":"Data © OpenStreetMap contributors, ODbL 1.0. https://osm.org/copyright","osm_type":"way","osm_id":110955474,"boundingbox":["40.8552197","40.8554796","-5.2097935","-5.209684"],"lat":"40.8553221","lon":"-5.2097291","display_name":"Calle las Eras, Bóveda del Río Almar, Salamanca, Castilla y León, 37116, España","class":"highway","type":"residential","importance":0.6},{"place_id":135933611,"licence":"Data © OpenStreetMap contributors, ODbL 1.0. https://osm.org/copyright","osm_type":"way","osm_id":130262721,"boundingbox":["41.0522292","41.0526801","-5.1931803","-5.1928332"],"lat":"41.05243","lon":"-5.193073","display_name":"Calle las Eras, Palaciosrubios, Salamanca, Castilla y León, 37406, España","class":"highway","type":"residential","importance":0.6},{"place_id":130387375,"licence":"Data © OpenStreetMap contributors, ODbL 1.0. https://osm.org/copyright","osm_type":"way","osm_id":111700285,"boundingbox":["40.8922461","40.8933282","-5.4993341","-5.4979976"],"lat":"40.8931763","lon":"-5.4982247","display_name":"Calle las Eras, Villagonzalo de Tormes, Salamanca, Castilla y León, 37893, España","class":"highway","type":"residential","importance":0.6},{"place_id":131045593,"licence":"Data © OpenStreetMap contributors, ODbL 1.0. https://osm.org/copyright","osm_type":"way","osm_id":111700373,"boundingbox":["40.918899","40.9201357","-5.493783","-5.4933624"],"lat":"40.9190554","lon":"-5.4937298","display_name":"Calle las Eras, Nuevo Francos, Machacón, Salamanca, Castilla y León, 37893, España","class":"highway","type":"residential","importance":0.6}],
[{"place_id":117017889,"licence":"Data © OpenStreetMap contributors, ODbL 1.0. https://osm.org/copyright","osm_type":"way","osm_id":42264537,"boundingbox":["40.9708337","40.9717715","-5.6608425","-5.6604001"],"lat":"40.9712161","lon":"-5.6606621","display_name":"Calle de Maldonado Ocampo, Labradores, Salamanca, Castilla y León, 37005, España","class":"highway","type":"residential","importance":0.6},{"place_id":123520667,"licence":"Data © OpenStreetMap contributors, ODbL 1.0. https://osm.org/copyright","osm_type":"way","osm_id":78423169,"boundingbox":["40.9695073","40.9695794","-5.6614294","-5.6614052"],"lat":"40.9695073","lon":"-5.6614294","display_name":"Calle de Maldonado Ocampo, Centro, Salamanca, Castilla y León, 37002, España","class":"highway","type":"residential","importance":0.6}],
[{"place_id":207870124,"licence":"Data © OpenStreetMap contributors, ODbL 1.0. https://osm.org/copyright","osm_type":"way","osm_id":461010533,"boundingbox":["40.9707006","40.9709886","-5.6604238","-5.6602852"],"lat":"40.9709403","lon":"-5.6603037","display_name":"Calle de Pérez Oliva, Labradores, Salamanca, Castilla y León, 37005, España","class":"highway","type":"residential","importance":0.5},{"place_id":116552084,"licence":"Data © OpenStreetMap contributors, ODbL 1.0. https://osm.org/copyright","osm_type":"way","osm_id":40902463,"boundingbox":["40.9694091","40.9694692","-5.6610328","-5.6609889"],"lat":"40.9694091","lon":"-5.6610328","display_name":"Calle de Pérez Oliva, Centro, Salamanca, Castilla y León, 37002, España","class":"highway","type":"residential","importance":0.5},{"place_id":119076999,"licence":"Data © OpenStreetMap contributors, ODbL 1.0. https://osm.org/copyright","osm_type":"way","osm_id":50754039,"boundingbox":["40.9593094","40.9594064","-5.7453249","-5.7448522"],"lat":"40.9593094","lon":"-5.7448522","display_name":"Calle de Pérez Oliva, Doñinos de Salamanca, Salamanca, Castilla y León, 37192, España","class":"highway","type":"residential","importance":0.5},{"place_id":220734628,"licence":"Data © OpenStreetMap contributors, ODbL 1.0. https://osm.org/copyright","osm_type":"way","osm_id":544318304,"boundingbox":["41.107289","41.1074289","-5.4293394","-5.4290341"],"lat":"41.1074289","lon":"-5.4290341","display_name":"Calle de Pérez Oliva, Espino de la Orbada, Salamanca, Castilla y León, España","class":"highway","type":"residential","importance":0.5},{"place_id":70156758,"licence":"Data © OpenStreetMap contributors, ODbL 1.0. https://osm.org/copyright","osm_type":"node","osm_id":6527993292,"boundingbox":["40.9709127","40.9710127","-5.6600964","-5.6599964"],"lat":"40.9709627","lon":"-5.6600464","display_name":"Store Salamanca, 22,24, Calle de Pérez Oliva, Labradores, Salamanca, Castilla y León, 37005, España","class":"shop","type":"kitchen","importance":0.4001}],
[{"place_id":116205530,"licence":"Data © OpenStreetMap contributors, ODbL 1.0. https://osm.org/copyright","osm_type":"way","osm_id":39706638,"boundingbox":["40.9692179","40.9713826","-5.6600911","-5.6588325"],"lat":"40.9705965","lon":"-5.6592918","display_name":"Calle Pollo Martín, Labradores, Salamanca, Castilla y León, 37005, España","class":"highway","type":"residential","importance":0.6}],
[{"place_id":116609789,"licence":"Data © OpenStreetMap contributors, ODbL 1.0. https://osm.org/copyright","osm_type":"way","osm_id":41087789,"boundingbox":["40.9699566","40.9717627","-5.6628797","-5.662061"],"lat":"40.9707305","lon":"-5.6625359","display_name":"Calle Rodríguez Fabrés, Labradores, Salamanca, Castilla y León, 37005, España","class":"highway","type":"residential","importance":0.4}],
[{"place_id":116588322,"licence":"Data © OpenStreetMap contributors, ODbL 1.0. https://osm.org/copyright","osm_type":"way","osm_id":42224217,"boundingbox":["40.9703381","40.970679","-5.6625608","-5.6618767"],"lat":"40.9704358","lon":"-5.6620715","display_name":"Calle Sánchez Llevot, Labradores, Salamanca, Castilla y León, 37005, España","class":"highway","type":"residential","importance":0.5},{"place_id":187095282,"licence":"Data © OpenStreetMap contributors, ODbL 1.0. https://osm.org/copyright","osm_type":"way","osm_id":341141426,"boundingbox":["40.8265914","40.8270747","-5.5136858","-5.5129563"],"lat":"40.8268535","lon":"-5.5132429","display_name":"Calle Sánchez Llevot, Urbanización La Casina del Duque, Alba de Tormes, Salamanca, Castilla y León, 37800, España","class":"highway","type":"residential","importance":0.5}],
[{"place_id":117990667,"licence":"Data © OpenStreetMap contributors, ODbL 1.0. https://osm.org/copyright","osm_type":"way","osm_id":46951236,"boundingbox":["40.9702388","40.9705229","-5.6559862","-5.6559093"],"lat":"40.970288","lon":"-5.6559226","display_name":"Calle Santander, Labradores, Salamanca, Castilla y León, 37005, España","class":"highway","type":"residential","importance":0.5},{"place_id":135823146,"licence":"Data © OpenStreetMap contributors, ODbL 1.0. https://osm.org/copyright","osm_type":"way","osm_id":130411913,"boundingbox":["41.0444726","41.0447963","-5.2597972","-5.2587978"],"lat":"41.0444726","lon":"-5.2595731","display_name":"Calle Santander, Poveda de las Cintas, Salamanca, Castilla y León, España","class":"highway","type":"residential","importance":0.5},{"place_id":118225618,"licence":"Data © OpenStreetMap contributors, ODbL 1.0. https://osm.org/copyright","osm_type":"way","osm_id":47077957,"boundingbox":["40.9705229","40.970533","-5.6559882","-5.6559862"],"lat":"40.9705271","lon":"-5.655987","display_name":"Calle Santander, Labradores, Salamanca, Castilla y León, 37005, España","class":"highway","type":"footway","importance":0.475},{"place_id":233266083,"licence":"Data © OpenStreetMap contributors, ODbL 1.0. https://osm.org/copyright","osm_type":"way","osm_id":632262979,"boundingbox":["40.970533","40.9707115","-5.6560235","-5.6559882"],"lat":"40.9707115","lon":"-5.6560235","display_name":"Calle Santander, Labradores, Salamanca, Castilla y León, 37005, España","class":"highway","type":"steps","importance":0.475}],
[{"place_id":116607261,"licence":"Data © OpenStreetMap contributors, ODbL 1.0. https://osm.org/copyright","osm_type":"way","osm_id":41122687,"boundingbox":["40.9714023","40.9719003","-5.667523","-5.6671334"],"lat":"40.9714652","lon":"-5.6674372","display_name":"Calle de Agustín del Cañizo, Oeste, Salamanca, Castilla y León, 37007, España","class":"highway","type":"residential","importance":0.6}],
[{"place_id":117076743,"licence":"Data © OpenStreetMap contributors, ODbL 1.0. https://osm.org/copyright","osm_type":"way","osm_id":43977081,"boundingbox":["40.9700418","40.9709812","-5.6656499","-5.6651792"],"lat":"40.9709191","lon":"-5.6652138","display_name":"Calle Antonio Espinosa, Oeste, Salamanca, Castilla y León, 37007, España","class":"highway","type":"residential","importance":0.6}],
[{"place_id":117601564,"licence":"Data © OpenStreetMap contributors, ODbL 1.0. https://osm.org/copyright","osm_type":"way","osm_id":45133597,"boundingbox":["40.9696438","40.9699854","-5.6687336","-5.6672896"],"lat":"40.9697496","lon":"-5.6682692","display_name":"Calle Asturias, Oeste, Salamanca, Castilla y León, 37007, España","class":"highway","type":"living_street","importance":0.5},{"place_id":139882441,"licence":"Data © OpenStreetMap contributors, ODbL 1.0. https://osm.org/copyright","osm_type":"way","osm_id":148237346,"boundingbox":["40.5491134","40.549976","-5.6727804","-5.6713635"],"lat":"40.5494342","lon":"-5.6721083","display_name":"Calle Asturias, Guijuelo, Salamanca, Castilla y León, 37770, España","class":"highway","type":"pedestrian","importance":0.5},{"place_id":225289633,"licence":"Data © OpenStreetMap contributors, ODbL 1.0. https://osm.org/copyright","osm_type":"way","osm_id":568515471,"boundingbox":["41.0855178","41.0859604","-6.0056357","-6.0050432"],"lat":"41.0855178","lon":"-6.0050432","display_name":"Calle Asturias, Barrio San Modesto, Ledesma, Salamanca, Castilla y León, 37100, España","class":"highway","type":"footway","importance":0.475}],
[{"place_id":116795339,"licence":"Data © OpenStreetMap contributors, ODbL 1.0. https://osm.org/copyright","osm_type":"way","osm_id":41122680,"boundingbox":["40.9692029","40.9696438","-5.6687336","-5.6683943"],"lat":"40.9695953","lon":"-5.6686986","display_name":"Calle Escultor Martínez Montañés, Oeste, Salamanca, Castilla y León, 37007, España","class":"highway","type":"living_street","importance":0.5}],
[{"place_id":116005651,"licence":"Data © OpenStreetMap contributors, ODbL 1.0. https://osm.org/copyright","osm_type":"way","osm_id":39706658,"boundingbox":["40.9694477","40.9705225","-5.6673665","-5.6671886"],"lat":"40.9699854","lon":"-5.6672896","display_name":"Calle Fray Luis de Granada, Oeste, Salamanca, Castilla y León, 37007, España","class":"highway","type":"secondary","importance":0.8}],
[{"place_id":117777830,"licence":"Data © OpenStreetMap contributors, ODbL 1.0. https://osm.org/copyright","osm_type":"way","osm_id":45877616,"boundingbox":["40.9702371","40.971175","-5.6662726","-5.6656001"],"lat":"40.9711234","lon":"-5.665647","display_name":"Calle Isidro Segovia, Oeste, Salamanca, Castilla y León, 37007, España","class":"highway","type":"residential","importance":0.6}],
[{"place_id":116838191,"licence":"Data © OpenStreetMap contributors, ODbL 1.0. https://osm.org/copyright","osm_type":"way","osm_id":41087759,"boundingbox":["40.9704206","40.9714126","-5.6668287","-5.6661159"],"lat":"40.9713545","lon":"-5.6661612","display_name":"Calle Joaquín Costa, Oeste, Salamanca, Castilla y León, 37007, España","class":"highway","type":"residential","importance":0.5}],
[{"place_id":122777395,"licence":"Data © OpenStreetMap contributors, ODbL 1.0. https://osm.org/copyright","osm_type":"way","osm_id":75492118,"boundingbox":["40.9696814","40.9706734","-5.6692843","-5.6685539"],"lat":"40.9701271","lon":"-5.6688826","display_name":"Calle Juan de Juni, Oeste, Salamanca, Castilla y León, 37007, España","class":"highway","type":"living_street","importance":0.7000000000000001},{"place_id":146010933,"licence":"Data © OpenStreetMap contributors, ODbL 1.0. https://osm.org/copyright","osm_type":"way","osm_id":172169133,"boundingbox":["40.6050753","40.6052736","-6.5260183","-6.5255396"],"lat":"40.6052054","lon":"-6.5258592","display_name":"Calle Juan de Juni, Ciudad Rodrigo, Salamanca, Castilla y León, 37500, España","class":"highway","type":"residential","importance":0.7000000000000001}],
[{"place_id":116513612,"licence":"Data © OpenStreetMap contributors, ODbL 1.0. https://osm.org/copyright","osm_type":"way","osm_id":41921042,"boundingbox":["40.969984","40.9706666","-5.6697751","-5.6692796"],"lat":"40.9706335","lon":"-5.6697547","display_name":"Calle de los Churriguera, Oeste, Salamanca, Castilla y León, 37007, España","class":"highway","type":"living_street","importance":0.6},{"place_id":116963295,"licence":"Data © OpenStreetMap contributors, ODbL 1.0. https://osm.org/copyright","osm_type":"way","osm_id":42164212,"boundingbox":["40.9361257","40.9372638","-5.6480483","-5.6460047"],"lat":"40.9367055","lon":"-5.6470039","display_name":"Calle Hermanos Churriguera, Albahonda IV, Carbajosa de la Sagrada, Salamanca, Castilla y León, 37188, España","class":"highway","type":"residential","importance":0.5}],
[{"place_id":116602738,"licence":"Data © OpenStreetMap contributors, ODbL 1.0. https://osm.org/copyright","osm_type":"way","osm_id":41087656,"boundingbox":["40.9707066","40.9716547","-5.6672887","-5.6666265"],"lat":"40.9708128","lon":"-5.6672094","display_name":"Calle Melchor Cano, Oeste, Salamanca, Castilla y León, 37007, España","class":"highway","type":"residential","importance":0.6}],
[{"place_id":116660857,"licence":"Data © OpenStreetMap contributors, ODbL 1.0. https://osm.org/copyright","osm_type":"way","osm_id":41087737,"boundingbox":["40.9706186","40.9706894","-5.670216","-5.6675298"],"lat":"40.9706734","lon":"-5.6692843","display_name":"Calle de Nieto Bonal, Oeste, Salamanca, Castilla y León, 37007, España","class":"highway","type":"living_street","importance":0.6}],
[{"place_id":116950988,"licence":"Data © OpenStreetMap contributors, ODbL 1.0. https://osm.org/copyright","osm_type":"way","osm_id":41087658,"boundingbox":["40.9693209","40.9697311","-5.6683506","-5.668019"],"lat":"40.9696789","lon":"-5.6683093","display_name":"Calle Padre Báñez, Oeste, Salamanca, Castilla y León, 37007, España","class":"highway","type":"living_street","importance":0.5}],
[{"place_id":116439208,"licence":"Data © OpenStreetMap contributors, ODbL 1.0. https://osm.org/copyright","osm_type":"way","osm_id":41122679,"boundingbox":["40.9693827","40.9703087","-5.6670702","-5.6664903"],"lat":"40.9695169","lon":"-5.666985","display_name":"Calle Padre Manjón, Oeste, Salamanca, Castilla y León, 37007, España","class":"highway","type":"residential","importance":0.5}],
[{"place_id":116602826,"licence":"Data © OpenStreetMap contributors, ODbL 1.0. https://osm.org/copyright","osm_type":"way","osm_id":41087780,"boundingbox":["40.9699024","40.9703501","-5.6696784","-5.667352"],"lat":"40.9700718","lon":"-5.6687805","display_name":"Calle Papin, Oeste, Salamanca, Castilla y León, 37007, España","class":"highway","type":"living_street","importance":0.5}],
[{"place_id":116538971,"licence":"Data © OpenStreetMap contributors, ODbL 1.0. https://osm.org/copyright","osm_type":"way","osm_id":41087651,"boundingbox":["40.9694465","40.9696438","-5.6693391","-5.6687336"],"lat":"40.9695852","lon":"-5.6689779","display_name":"Calle Pintor Morales, Oeste, Salamanca, Castilla y León, 37007, España","class":"highway","type":"living_street","importance":0.6}],
[{"place_id":116322657,"licence":"Data © OpenStreetMap contributors, ODbL 1.0. https://osm.org/copyright","osm_type":"way","osm_id":41122685,"boundingbox":["40.9693822","40.969524","-5.6670702","-5.6667524"],"lat":"40.9694427","lon":"-5.6668891","display_name":"Calle Profesor Sáez, Oeste, Salamanca, Castilla y León, 37007, España","class":"highway","type":"residential","importance":0.5}],
[{"place_id":171138826,"licence":"Data © OpenStreetMap contributors, ODbL 1.0. https://osm.org/copyright","osm_type":"way","osm_id":263642964,"boundingbox":["40.9756525","40.9761469","-5.6612721","-5.6599116"],"lat":"40.9758409","lon":"-5.6604288","display_name":"Avenida de Alfonso VI, Chinchibarra, Salamanca, Castilla y León, 37005, España","class":"highway","type":"secondary","importance":0.6},{"place_id":116459773,"licence":"Data © OpenStreetMap contributors, ODbL 1.0. https://osm.org/copyright","osm_type":"way","osm_id":41736482,"boundingbox":["40.9761469","40.9762204","-5.6617355","-5.6612721"],"lat":"40.9762204","lon":"-5.6615144","display_name":"Avenida de Alfonso VI, Salesas, Salamanca, Castilla y León, 37005, España","class":"highway","type":"secondary","importance":0.6}],
[{"place_id":150214246,"licence":"Data © OpenStreetMap contributors, ODbL 1.0. https://osm.org/copyright","osm_type":"way","osm_id":188401393,"boundingbox":["20.5894736","20.5894918","-101.1953973","-101.1938342"],"lat":"20.5894817","lon":"-101.1946672","display_name":"Calle Alonso de Ojeda, Las Americas, Salamanca, Guanajuato, 36724, México","class":"highway","type":"residential","importance":0.7000000000000001}],
[{"place_id":116649125,"licence":"Data © OpenStreetMap contributors, ODbL 1.0. https://osm.org/copyright","osm_type":"way","osm_id":42425841,"boundingbox":["40.9739555","40.9751936","-5.6600169","-5.6595031"],"lat":"40.9746177","lon":"-5.6597509","display_name":"Calle Arroyo de la Lastra, Salesas, Salamanca, Castilla y León, 37005, España","class":"highway","type":"residential","importance":0.8}],
[{"place_id":117130981,"licence":"Data © OpenStreetMap contributors, ODbL 1.0. https://osm.org/copyright","osm_type":"way","osm_id":41736488,"boundingbox":["40.9731423","40.9758051","-5.6611832","-5.6603311"],"lat":"40.9742305","lon":"-5.660835","display_name":"Calle Conde de Cabarrús, Salesas, Salamanca, Castilla y León, 37005, España","class":"highway","type":"residential","importance":0.5}],
[{"place_id":116849365,"licence":"Data © OpenStreetMap contributors, ODbL 1.0. https://osm.org/copyright","osm_type":"way","osm_id":43132672,"boundingbox":["40.9760404","40.9765139","-5.6609622","-5.6596615"],"lat":"40.9762789","lon":"-5.6603241","display_name":"Calle Conde Don Vela, Chinchibarra, Salamanca, Castilla y León, 37005, España","class":"highway","type":"secondary","importance":0.7000000000000001}],
[{"place_id":196455771,"licence":"Data © OpenStreetMap contributors, ODbL 1.0. https://osm.org/copyright","osm_type":"way","osm_id":391581737,"boundingbox":["40.9725382","40.9726708","-5.6610446","-5.6601532"],"lat":"40.9726151","lon":"-5.6606648","display_name":"Calle Fernando de la Peña, Salesas, Salamanca, Castilla y León, 37005, España","class":"highway","type":"residential","importance":0.8}],
[{"place_id":117147315,"licence":"Data © OpenStreetMap contributors, ODbL 1.0. https://osm.org/copyright","osm_type":"way","osm_id":41521887,"boundingbox":["40.9721882","40.9755939","-5.6612536","-5.6597571"],"lat":"40.9740175","lon":"-5.6604602","display_name":"Calle Fernando de Rojas, Salesas, Salamanca, Castilla y León, 37005, España","class":"highway","type":"residential","importance":0.7000000000000001},{"place_id":120834239,"licence":"Data © OpenStreetMap contributors, ODbL 1.0. https://osm.org/copyright","osm_type":"way","osm_id":60574555,"boundingbox":["40.9520778","40.9521695","-5.5774826","-5.57521"],"lat":"40.9520847","lon":"-5.5753628","display_name":"Calle Fernando de Rojas, Urbanización Los Girasoles, Pelabravo, Salamanca, Castilla y León, 37350, España","class":"highway","type":"residential","importance":0.7000000000000001},{"place_id":119146253,"licence":"Data © OpenStreetMap contributors, ODbL 1.0. https://osm.org/copyright","osm_type":"way","osm_id":51107739,"boundingbox":["41.021864","41.0225504","-5.6018257","-5.5994595"],"lat":"41.021864","lon":"-5.5994595","display_name":"Calle Fernando de Rojas, La Almunia, Urbanización la Almunia, Castellanos de Moriscos, Salamanca, Castilla y León, 37439, España","class":"highway","type":"residential","importance":0.7000000000000001}],
[{"place_id":139093865,"licence":"Data © OpenStreetMap contributors, ODbL 1.0. https://osm.org/copyright","osm_type":"way","osm_id":143765571,"boundingbox":["40.9751936","40.9754181","-5.6604549","-5.6595031"],"lat":"40.9753062","lon":"-5.659961","display_name":"Calle de los Hidalgos, Salesas, Salamanca, Castilla y León, 37005, España","class":"highway","type":"residential","importance":0.6},{"place_id":128406770,"licence":"Data © OpenStreetMap contributors, ODbL 1.0. https://osm.org/copyright","osm_type":"way","osm_id":102977973,"boundingbox":["41.1623788","41.1625068","-6.1864676","-6.1846783"],"lat":"41.1624631","lon":"-6.1856412","display_name":"Calle de los Hidalgos, Villaseco de los Reyes, Salamanca, Castilla y León, 37171, España","class":"highway","type":"residential","importance":0.6}],
[{"place_id":220495278,"licence":"Data © OpenStreetMap contributors, ODbL 1.0. https://osm.org/copyright","osm_type":"way","osm_id":542912324,"boundingbox":["41.0520459","41.0522047","-5.3294559","-5.3292496"],"lat":"41.0521005","lon":"-5.3293418","display_name":"Plaza Madrid, Cantalpino, Salamanca, Castilla y León, 37405, España","class":"highway","type":"residential","importance":0.5}],
[{"place_id":130638794,"licence":"Data © OpenStreetMap contributors, ODbL 1.0. https://osm.org/copyright","osm_type":"way","osm_id":111994751,"boundingbox":["40.830485","40.8312402","-5.2889392","-5.2884058"],"lat":"40.8309583","lon":"-5.2885398","display_name":"Calle Norte, Macotera, Salamanca, Castilla y León, 37310, España","class":"highway","type":"residential","importance":0.5},{"place_id":135630779,"licence":"Data © OpenStreetMap contributors, ODbL 1.0. https://osm.org/copyright","osm_type":"way","osm_id":130404165,"boundingbox":["40.8450668","40.8453725","-6.0491971","-6.0487777"],"lat":"40.8451936","lon":"-6.0487777","display_name":"Calle Norte, Aldehuela de la Bóveda, Salamanca, Castilla y León, España","class":"highway","type":"residential","importance":0.5},{"place_id":251095937,"licence":"Data © OpenStreetMap contributors, ODbL 1.0. https://osm.org/copyright","osm_type":"way","osm_id":737271707,"boundingbox":["41.0038629","41.0040125","-5.6438388","-5.6437916"],"lat":"41.0039281","lon":"-5.6438059","display_name":"Calle Norte, Polígono Industrial Los Villares, Villares de la Reina, Salamanca, Castilla y León, 37184, España","class":"highway","type":"residential","importance":0.5},{"place_id":149041932,"licence":"Data © OpenStreetMap contributors, ODbL 1.0. https://osm.org/copyright","osm_type":"way","osm_id":184160337,"boundingbox":["41.1028796","41.1039385","-5.4839876","-5.4832928"],"lat":"41.1035827","lon":"-5.4835638","display_name":"Calle Norte, La Orbada, Salamanca, Castilla y León, 37490, España","class":"highway","type":"residential","importance":0.5},{"place_id":241500164,"licence":"Data © OpenStreetMap contributors, ODbL 1.0. https://osm.org/copyright","osm_type":"way","osm_id":677086863,"boundingbox":["40.9535956","40.9541218","-5.2898561","-5.2892086"],"lat":"40.9538391","lon":"-5.2895586","display_name":"Calle Norte, Villar de Gallimazo, Salamanca, Castilla y León, 37320, España","class":"highway","type":"residential","importance":0.5}],
[{"place_id":117018246,"licence":"Data © OpenStreetMap contributors, ODbL 1.0. https://osm.org/copyright","osm_type":"way","osm_id":41736496,"boundingbox":["40.9726987","40.9731648","-5.6577096","-5.6574356"],"lat":"40.9730881","lon":"-5.6574826","display_name":"Calle de Pérez Herrasti, Salesas, Salamanca, Castilla y León, 37005, España","class":"highway","type":"residential","importance":0.5}],
[{"place_id":116456013,"licence":"Data © OpenStreetMap contributors, ODbL 1.0. https://osm.org/copyright","osm_type":"way","osm_id":41736494,"boundingbox":["40.9715876","40.9720345","-5.6598346","-5.6579407"],"lat":"40.9718872","lon":"-5.6592006","display_name":"Calle Pinzones, Salesas, Salamanca, Castilla y León, 37005, España","class":"highway","type":"residential","importance":0.5},{"place_id":149819950,"licence":"Data © OpenStreetMap contributors, ODbL 1.0. https://osm.org/copyright","osm_type":"way","osm_id":186869391,"boundingbox":["40.8841354","40.8859998","-5.6817335","-5.6801645"],"lat":"40.8841354","lon":"-5.6817335","display_name":"Calle Pinzones, Urbanización Los Guijos, Miranda de Azán, Salamanca, Castilla y León, 37183, España","class":"highway","type":"residential","importance":0.5},{"place_id":151519138,"licence":"Data © OpenStreetMap contributors, ODbL 1.0. https://osm.org/copyright","osm_type":"way","osm_id":193847814,"boundingbox":["40.3254146","40.3260116","-5.9749661","-5.9746041"],"lat":"40.3259277","lon":"-5.9749661","display_name":"Calle Pinzones, Lagunilla, Salamanca, Castilla y León, 37724, España","class":"highway","type":"residential","importance":0.5}],
[{"place_id":116487539,"licence":"Data © OpenStreetMap contributors, ODbL 1.0. https://osm.org/copyright","osm_type":"way","osm_id":41736490,"boundingbox":["40.9726987","40.9738117","-5.6615268","-5.6577096"],"lat":"40.9733821","lon":"-5.6597004","display_name":"Calle Pizarro, Salesas, Salamanca, Castilla y León, 37005, España","class":"highway","type":"residential","importance":0.5},{"place_id":163775121,"licence":"Data © OpenStreetMap contributors, ODbL 1.0. https://osm.org/copyright","osm_type":"way","osm_id":235197361,"boundingbox":["40.6039896","40.6043883","-6.5270699","-6.5262471"],"lat":"40.6041685","lon":"-6.5266309","display_name":"Calle Pizarro, Ciudad Rodrigo, Salamanca, Castilla y León, 37500, España","class":"highway","type":"residential","importance":0.5},{"place_id":185496116,"licence":"Data © OpenStreetMap contributors, ODbL 1.0. https://osm.org/copyright","osm_type":"way","osm_id":334466627,"boundingbox":["40.8259686","40.8264537","-5.5142192","-5.5141704"],"lat":"40.8261951","lon":"-5.5141821","display_name":"Calle Pizarro, Urbanización La Casina del Duque, Alba de Tormes, Salamanca, Castilla y León, 37800, España","class":"highway","type":"residential","importance":0.5},{"place_id":117745059,"licence":"Data © OpenStreetMap contributors, ODbL 1.0. https://osm.org/copyright","osm_type":"way","osm_id":43977075,"boundingbox":["40.9937798","40.9947909","-5.6353153","-5.6337418"],"lat":"40.9937798","lon":"-5.6352154","display_name":"Calle Pizarro, Polígono Industrial Los Villares, Villares de la Reina, Salamanca, Castilla y León, 37184, España","class":"highway","type":"residential","importance":0.5},{"place_id":149629588,"licence":"Data © OpenStreetMap contributors, ODbL 1.0. https://osm.org/copyright","osm_type":"way","osm_id":186869395,"boundingbox":["40.8828081","40.8850166","-5.681235","-5.6794159"],"lat":"40.8850166","lon":"-5.6794159","display_name":"Calle Pizarro, Urbanización Los Guijos, Miranda de Azán, Salamanca, Castilla y León, 37183, España","class":"highway","type":"residential","importance":0.5}],
[{"place_id":116790588,"licence":"Data © OpenStreetMap contributors, ODbL 1.0. https://osm.org/copyright","osm_type":"way","osm_id":41736495,"boundingbox":["40.9718872","40.9730214","-5.6592006","-5.6586534"],"lat":"40.9724617","lon":"-5.6589308","display_name":"Calle de Sarasate, Salesas, Salamanca, Castilla y León, 37005, España","class":"highway","type":"residential","importance":0.5}],
[{"place_id":118667823,"licence":"Data © OpenStreetMap contributors, ODbL 1.0. https://osm.org/copyright","osm_type":"way","osm_id":48505780,"boundingbox":["41.0001424","41.0003863","-5.6980489","-5.6974067"],"lat":"41.0001424","lon":"-5.6980489","display_name":"Calle Sur, Anantapur, Villamayor, Salamanca, Castilla y León, 37185, España","class":"highway","type":"residential","importance":0.5},{"place_id":118671583,"licence":"Data © OpenStreetMap contributors, ODbL 1.0. https://osm.org/copyright","osm_type":"way","osm_id":51107727,"boundingbox":["41.0036477","41.0040835","-5.6457934","-5.6452839"],"lat":"41.0040012","lon":"-5.6455544","display_name":"Calle Sur, Polígono Industrial Los Villares, Villares de la Reina, Salamanca, Castilla y León, 37184, España","class":"highway","type":"residential","importance":0.5},{"place_id":119000870,"licence":"Data © OpenStreetMap contributors, ODbL 1.0. https://osm.org/copyright","osm_type":"way","osm_id":50898741,"boundingbox":["40.963649","40.9636839","-5.5071871","-5.5054224"],"lat":"40.9636802","lon":"-5.5070009","display_name":"Calle Sur, Amatos, Calvarrasa de Abajo, Salamanca, Castilla y León, 37181, España","class":"highway","type":"residential","importance":0.5},{"place_id":121653129,"licence":"Data © OpenStreetMap contributors, ODbL 1.0. https://osm.org/copyright","osm_type":"way","osm_id":65443252,"boundingbox":["40.9853498","40.9857538","-5.7958946","-5.7946016"],"lat":"40.985574","lon":"-5.7952735","display_name":"Calle Sur, Parada de Arriba, Salamanca, Castilla y León, 37129, España","class":"highway","type":"residential","importance":0.5},{"place_id":237838033,"licence":"Data © OpenStreetMap contributors, ODbL 1.0. https://osm.org/copyright","osm_type":"way","osm_id":660272030,"boundingbox":["40.8917367","40.8917689","-6.3063509","-6.3062255"],"lat":"40.8917689","lon":"-6.3063509","display_name":"Calle Sur, El Cubo de Don Sancho, Salamanca, Castilla y León, España","class":"highway","type":"residential","importance":0.5}],
[{"place_id":116672171,"licence":"Data © OpenStreetMap contributors, ODbL 1.0. https://osm.org/copyright","osm_type":"way","osm_id":41832203,"boundingbox":["40.9717497","40.9728803","-5.6599459","-5.6594675"],"lat":"40.9725882","lon":"-5.6595994","display_name":"Calle Toledo, Salesas, Salamanca, Castilla y León, 37005, España","class":"highway","type":"residential","importance":0.5}],
[{"place_id":242829959,"licence":"Data © OpenStreetMap contributors, ODbL 1.0. https://osm.org/copyright","osm_type":"way","osm_id":690426171,"boundingbox":["40.9378424","40.9380076","-6.7188108","-6.7185758"],"lat":"40.9378424","lon":"-6.7188108","display_name":"Calle Velazquez, Lumbrales, Salamanca, Castilla y León, 37240, España","class":"highway","type":"residential","importance":0.5},{"place_id":122584443,"licence":"Data © OpenStreetMap contributors, ODbL 1.0. https://osm.org/copyright","osm_type":"way","osm_id":72526462,"boundingbox":["40.5976856","40.5984665","-6.5241269","-6.5234668"],"lat":"40.5984665","lon":"-6.5234668","display_name":"Calle Velázquez, Ciudad Rodrigo, Salamanca, Castilla y León, 37500, España","class":"highway","type":"residential","importance":0.4},{"place_id":140769943,"licence":"Data © OpenStreetMap contributors, ODbL 1.0. https://osm.org/copyright","osm_type":"way","osm_id":152644434,"boundingbox":["41.0461775","41.0466986","-5.3825154","-5.3825077"],"lat":"41.0465456","lon":"-5.38251","display_name":"Calle Velázquez, Arabayona de Mógica, Salamanca, Castilla y León, España","class":"highway","type":"residential","importance":0.4},{"place_id":118975077,"licence":"Data © OpenStreetMap contributors, ODbL 1.0. https://osm.org/copyright","osm_type":"way","osm_id":51263880,"boundingbox":["40.9227167","40.9239462","-5.6972803","-5.6967175"],"lat":"40.9239462","lon":"-5.6967175","display_name":"Calle Velázquez, Los Hoyos, Aldeatejada, Salamanca, Castilla y León, 37187, España","class":"highway","type":"residential","importance":0.4},{"place_id":117263530,"licence":"Data © OpenStreetMap contributors, ODbL 1.0. https://osm.org/copyright","osm_type":"way","osm_id":41966551,"boundingbox":["40.9920769","40.9943911","-5.6659373","-5.661764"],"lat":"40.993342","lon":"-5.6633999","display_name":"Calle Velázquez, Urbanización Villas del Helmantico, El Helmántico, Villares de la Reina, Salamanca, Castilla y León, 37184, España","class":"highway","type":"residential","importance":0.4}]
]